City,Hemisphere,Latitude,Longitude,Temperature(F),Humidity(%),Cloudiness(%),Wind Speed(mph)
Port Keats,southern,-14.25,129.55,66.33,48,11,8.57
Abu Samrah,northern,35.3029,37.1841,84.83,33,0,9.95
Saldanha,southern,-33.0117,17.9442,51.85,88,100,8.7
Gouré,northern,13.9835,10.2704,87.1,41,16,11.99
Hay River,northern,60.8156,-115.7999,67.98,60,75,8.05
Jardim,southern,-21.4803,-56.1381,46.44,77,100,8.57
Vaini,southern,-21.2,-175.2,73.56,78,75,6.91
Urengoy,northern,65.9667,78.3667,47.28,55,90,12.68
Jamestown,northern,42.097,-79.2353,85.1,76,6,10.67
Kasungu,southern,-13.0333,33.4833,59.07,57,8,3.15
Yellowknife,northern,62.456,-114.3525,73.85,43,20,5.99
Kapaa,northern,22.0752,-159.319,80.08,77,28,1.99
Lebu,southern,-37.6167,-73.65,51.67,48,6,2.84
Punta Arenas,southern,-53.15,-70.9167,48.31,61,20,13.8
Puerto Ayora,southern,-0.7393,-90.3518,74.55,88,76,5.99
Igarka,northern,67.4667,86.5833,45.7,97,100,7
Broome,northern,42.2506,-75.833,90.93,57,28,3
East London,southern,-33.0153,27.9116,59.94,77,0,17.27
Hobart,southern,-42.8794,147.3294,38.61,96,40,1.01
Rikitea,southern,-23.1203,-134.9692,74.7,73,100,8.57
Mataura,southern,-46.1927,168.8643,42.48,80,39,6.58
Bremerton,northern,47.5673,-122.6326,98.91,47,0,4
Auki,southern,-8.7676,160.7034,74.8,89,64,5.17
Port Elizabeth,southern,-33.918,25.5701,59.29,82,75,19.57
Avarua,southern,-21.2078,-159.775,71.65,64,75,8.05
Alugan,northern,12.2188,125.4808,77.61,91,23,4.81
Henties Bay,southern,-22.116,14.2845,58.86,76,5,3.91
Torbay,northern,47.6666,-52.7314,60.28,97,90,16.11
New Norfolk,southern,-42.7826,147.0587,38.62,89,4,2.66
Pisco,southern,-13.7,-76.2167,62.65,94,90,4.61
Parit Raja,northern,1.8681,103.1124,77.31,84,18,2.3
Kampot,northern,10.6167,104.1833,82.45,87,77,6.06
Bathsheba,northern,13.2167,-59.5167,88.41,55,20,25.32
Tsimmerbude,northern,54.675,20.1347,68.05,87,0,4.38
Bengkulu,southern,-3.8004,102.2655,74.43,92,100,4.43
Qaanaaq,northern,77.484,-69.3632,38.08,82,98,5.41
Bredasdorp,southern,-34.5322,20.0403,49.32,87,100,4.61
Belozërskoye,northern,55.8214,65.5842,64.36,69,97,5.7
Saskylakh,northern,71.9167,114.0833,40.73,71,100,10.38
Busselton,southern,-33.65,115.3333,53.04,79,100,19.98
Tuktoyaktuk,northern,69.4541,-133.0374,68,52,75,16.11
Norfolk,northern,42.1668,-71.2495,92.82,57,100,3
Arraial do Cabo,southern,-22.9661,-42.0278,78.66,57,0,8.05
Aklavik,northern,68.2191,-135.0107,69.8,37,75,13.8
Isla Mujeres,northern,21.2311,-86.731,89.17,77,100,10.51
Saint-Philippe,southern,-21.3585,55.7679,69.31,85,36,11.99
Kaduna,northern,10.5222,7.4383,70.14,90,100,7.56
Nikolskoye,northern,59.7035,30.7861,66.67,98,100,7.43
Ribeira Grande,northern,38.5167,-28.7,70.2,88,20,13.8
Hilo,northern,19.7297,-155.09,77.76,69,24,1.99
Bandarbeyla,northern,9.4942,50.8122,77.49,82,5,30.58
Cidreira,southern,-30.1811,-50.2056,51.64,58,99,17.16
Hong Kong,northern,22.2855,114.1577,84.94,89,100,1.99
Bambous Virieux,southern,-20.3428,57.7575,73.65,73,40,11.5
Iqaluit,northern,63.7506,-68.5145,46.13,71,90,14.97
Ushuaia,southern,-54.8,-68.3,44.26,76,20,19.57
Tautira,southern,-17.7333,-149.15,82.42,72,31,16.82
Leningradskiy,northern,69.3833,178.4167,37.26,88,100,7.38
Taoudenni,northern,22.6783,-3.9836,109.94,6,0,5.23
Souillac,southern,-20.5167,57.5167,73.78,73,40,11.5
Vila Franca do Campo,northern,37.7167,-25.4333,72.01,78,7,6.73
Kupang,southern,-10.1667,123.5833,75.34,77,0,12.37
Baykit,northern,61.67,96.37,49.39,84,98,2.89
Clovis,northern,36.8252,-119.7029,94.98,40,0,1.01
Sorong,southern,-0.8833,131.25,76.98,87,94,4.32
Doha,northern,25.2867,51.5333,93.18,66,0,2.3
Lagoa,northern,39.05,-27.9833,69.19,86,4,15.41
Caruray,northern,10.3094,119.0128,78.91,84,51,3.18
Alamogordo,northern,32.8995,-105.9603,64.31,94,40,1.99
Ponta do Sol,northern,32.6667,-17.1,71.74,77,0,2.1
Provideniya,northern,64.3833,-173.3,47.17,86,100,7.16
Nara,northern,34.6851,135.8049,71.49,83,100,4.03
Hofn,northern,64.2539,-15.2082,51.82,82,20,8.05
Khatanga,northern,71.9667,102.5,43.61,80,100,16.42
Dhemāji,northern,27.4833,94.5833,75.16,96,100,6.62
Khani,northern,41.9563,42.9566,65.77,95,100,1.32
Saint George,northern,37.1041,-113.5841,97.12,16,78,1.01
Simpang,southern,-1.2667,104.0833,74.12,94,75,2.1
Clyde River,northern,70.4692,-68.5914,39.43,87,75,21.85
Goderich,northern,43.7501,-81.7165,68.41,88,19,5.75
Manggar,southern,-2.8833,108.2667,80.17,77,100,6.49
Upernavik,northern,72.7868,-56.1549,35.76,87,100,7.47
Coquimbo,southern,-29.9533,-71.3436,62.33,51,0,14.97
Cape Town,southern,-33.9258,18.4232,50.99,91,75,1.01
Thompson,northern,55.7435,-97.8558,78.96,41,75,10.36
Sasykoli,northern,47.5515,46.9968,83.7,47,92,8.39
Butaritari,northern,3.0707,172.7902,81.99,78,100,13.56
Oistins,northern,13.0667,-59.5333,87.89,55,20,25.32
Albany,northern,42.6001,-73.9662,90.46,63,100,8.37
Gimli,northern,50.6336,-96.9907,66.51,63,0,16.11
Shache,northern,38.4167,77.2406,83.3,22,100,18.34
Ust-Nera,northern,64.5667,143.2,71.65,44,5,5.48
Hikari,northern,33.955,131.95,71.56,93,2,4.18
Mormugao,northern,15.4,73.8,76.26,100,75,3.44
Luganville,southern,-15.5333,167.1667,75.29,87,1,2.86
Broken Hill,southern,-31.95,141.4333,46.11,87,0,14.97
Port Alfred,southern,-33.5906,26.891,59.14,80,30,15.21
San Vicente,southern,-26.6167,-54.1333,47.17,45,45,5.06
Kirakira,southern,-10.4544,161.9205,76.01,82,100,6.33
Mahébourg,southern,-20.4081,57.7,73.69,73,40,11.5
Bud,northern,39.447,-86.1758,87.75,66,60,6.82
Shetpe,northern,44.1667,52.1167,94.5,17,6,5.32
Manono,southern,-7.3,27.4167,74.95,35,96,5.53
Hobyo,northern,5.3505,48.5268,77.72,85,100,23.62
Berlevåg,northern,70.8578,29.0864,47.32,89,95,9.84
Gryazovets,northern,58.88,40.2525,68.99,94,52,6.22
Adrar,northern,20.5022,-10.0711,104.99,6,10,16.89
Dikson,northern,73.5069,80.5464,34.02,85,5,11.23
Airai,southern,-8.9266,125.4092,54.5,82,7,3.8
Quang Ngai,northern,15.1167,108.8,78.6,79,57,5.7
Mar del Plata,southern,-38.0023,-57.5575,48.63,69,90,20
Iskateley,northern,67.6803,53.1512,57.87,64,100,9.44
Rumonge,southern,-3.9736,29.4386,72.27,58,23,4.34
Kaifeng,northern,34.7911,114.3483,85.06,62,12,9.06
Tortolì,northern,39.9256,9.6572,76.93,69,2,1.14
Tazovsky,northern,67.4667,78.7,40.96,78,100,15.55
Sena Madureira,southern,-9.0656,-68.6569,77.68,90,100,5.1
Katsuura,northern,35.1333,140.3,69.85,97,100,18.66
Gull Lake,northern,50.1001,-108.4847,77.36,32,0,7.81
Fort-Shevchenko,northern,44.5086,50.263,87.57,39,89,6.76
Mezen',northern,65.8522,44.24,59.72,94,100,4.79
La Ronge,northern,55.1001,-105.2842,82.65,36,40,6.91
Gao,northern,16.6362,1.637,98.76,11,11,7.54
Bluff,southern,-46.6,168.3333,42.8,56,11,20.8
Kruisfontein,southern,-34.0033,24.7314,55.89,82,100,17.38
Tonshayevo,northern,57.736,47.0127,66.13,92,100,8.03
Beringovskiy,northern,63.05,179.3167,47.5,75,90,4.97
Wonthaggi,southern,-38.6044,145.5913,41.76,88,0,6.35
Hermanus,southern,-34.4187,19.2345,45.81,77,100,7.72
Mayumba,southern,-3.432,10.6554,72.7,90,77,7.31
Talnakh,northern,69.4865,88.3972,48.74,88,100,4.25
Sinnamary,northern,5.3833,-52.95,80.13,82,97,6.17
Albert Lea,northern,43.648,-93.3683,81.39,61,40,8.05
Meulaboh,northern,4.1363,96.1285,76.23,87,100,3.53
Salalah,northern,17.0151,54.0924,80.37,84,100,2.57
Tasiilaq,northern,65.6145,-37.6368,38.35,94,100,17.4
Terra Santa,southern,-2.1042,-56.4869,85.26,61,89,2.42
Baker City,northern,44.7749,-117.8344,91.78,41,0,8.41
Portland,northern,45.5234,-122.6762,108.21,23,0,1.01
Apac,northern,1.9756,32.5386,67.19,78,50,5.37
Preobrazheniye,northern,42.9019,133.9064,58.71,98,95,5.3
Champerico,northern,14.3,-91.9167,89.85,70,96,5.93
Klaksvík,northern,62.2266,-6.589,49.12,96,68,12.8
Baculin,northern,7.4525,126.5842,77.61,84,11,4.68
Constitución,southern,-35.3333,-72.4167,56.77,42,9,3.91
Maceió,southern,-9.6658,-35.7353,80.04,65,40,12.66
Vardø,northern,70.3705,31.1107,48.18,81,0,4.61
Shelburne,northern,44.0787,-80.2041,77.83,55,1,10.87
Shīeli,northern,44.1667,66.75,84.87,19,4,7.16
Hithadhoo,southern,-0.6,73.0833,82.6,72,100,7.2
Makakilo City,northern,21.3469,-158.0858,79.18,58,40,5.75
Dukat,northern,62.55,155.55,59.32,60,94,6.08
Departamento de Maldonado,southern,-34.6667,-54.9167,45.79,93,100,27.27
Chiredzi,southern,-21.05,31.6667,65.66,37,1,4.85
Bilma,northern,18.6853,12.9164,97,10,7,5.48
São João da Barra,southern,-21.6403,-41.0511,73.54,77,3,14.25
Novikovo,northern,51.1537,37.8879,65.61,95,0,7.25
Kobryn,northern,52.2138,24.3564,63.59,78,91,5.35
Nuevo Laredo,northern,27.4763,-99.5164,88.14,62,90,9.22
Puerto Gaitán,northern,4.3133,-72.0816,83.48,70,100,8.66
Samarinda,southern,-0.5,117.15,73.67,92,99,0.13
Lorengau,southern,-2.0226,147.2712,81.07,79,93,5.66
George Town,northern,5.4112,100.3354,79.9,87,20,4.61
Lac du Bonnet,northern,50.2536,-96.0612,72.59,30,0,8.3
Tevaitoa,southern,-16.7833,-151.5,80.55,69,98,16.89
Half Moon Bay,northern,37.4636,-122.4286,69.66,68,39,1.01
Port Hawkesbury,northern,45.6169,-61.3485,73.71,81,99,5.99
Matagami,northern,49.7502,-77.6328,65.84,67,100,4
Matamoros,northern,25.5333,-103.25,87.12,36,100,11.72
Strezhevoy,northern,60.7333,77.5889,58.98,79,100,3.22
San Patricio,northern,28.017,-97.5169,85.01,54,91,6.11
Nālūt,northern,30.3333,10.85,98.29,10,36,9.8
Kusa,northern,55.3383,59.4406,63.5,82,10,4.09
Pangnirtung,northern,66.1451,-65.7125,42.57,75,98,3.29
São Filipe,northern,14.8961,-24.4956,75.85,80,23,10.4
Ancud,southern,-41.8697,-73.8203,47.68,68,68,7.65
Kloulklubed,northern,7.0419,134.2556,84.06,71,100,7.36
Esperance,southern,-33.8667,121.9,55.4,76,2,16.15
Barrow,northern,71.2906,-156.7887,33.82,80,90,10.36
Ust-Maya,northern,60.4167,134.5333,61.12,70,0,1.74
Kingaroy,southern,-26.5333,151.8333,44.64,100,17,0
Kahului,northern,20.8947,-156.47,80.82,65,11,11.99
Lima,southern,-12.0432,-77.0282,68.05,75,90,5.75
Cururupu,southern,-1.8283,-44.8683,80.38,75,82,3.89
Longonjo,southern,-12.9067,15.2533,62.56,25,84,3.49
Chui,southern,-33.6971,-53.4616,45.01,83,100,22.19
Rundu,southern,-17.9333,19.7667,60.58,29,5,4.74
Ongandjera,southern,-17.8833,15.0667,68.27,23,4,6.15
Hibbing,northern,47.4272,-92.9377,76.59,66,100,4.21
Castro,southern,-24.7911,-50.0119,45.63,91,100,9.57
Umluj,northern,25.0213,37.2685,88.48,48,0,8.77
Srednekolymsk,northern,67.45,153.6833,77.16,35,6,9.28
Ambilobe,southern,-13.2,49.05,70.11,81,41,4.25
Neyshabur,northern,36.2133,58.7958,81.09,20,2,3
Nome,northern,64.5011,-165.4064,49.15,84,73,9.53
Guerrero Negro,northern,27.9769,-114.0611,75.29,56,9,12.06
Grand Gaube,southern,-20.0064,57.6608,73.38,73,0,5.99
Carnarvon,southern,-24.8667,113.6333,66.29,64,0,7.11
Kaoma,southern,-14.7833,24.8,58.46,37,65,4.97
Tazmalt,northern,36.3868,4.3989,86.09,41,100,9.01
Vänersborg,northern,58.3807,12.3234,62.22,75,80,12.66
Monor,northern,47.3513,19.4473,84.2,45,0,4.61
Issoire,northern,45.55,3.25,69.06,90,77,3.8
Sur,northern,22.5667,59.5289,86.54,57,0,14.52
Boyolangu,southern,-8.1181,111.8935,74.41,89,72,1.7
Cabedelo,southern,-6.9811,-34.8339,78.33,70,45,16.31
Vestmannaeyjar,northern,63.4427,-20.2734,49.19,93,20,13.8
San Jose,northern,37.3394,-121.895,77.54,57,1,1.99
Sitka,northern,57.0531,-135.33,73.78,54,0,5.88
Chapais,northern,49.7834,-74.8492,77.29,28,8,4.47
Ilulissat,northern,69.2167,-51.1,39.22,93,75,12.66
Naze,northern,28.3667,129.4833,75.65,93,100,16.4
Amarpur,northern,25.0333,86.9,88.2,66,100,3.74
Ulaanbaatar,northern,47.9077,106.8832,55.53,88,75,11.18
Zyryanka,northern,65.75,150.85,73.67,37,6,11.07
Rawson,southern,-43.3002,-65.1023,51.93,26,7,9.6
Grand Forks,northern,47.9417,-97.4337,74.91,68,36,7.65
Staryy Nadym,northern,65.6118,72.6842,44.78,70,41,5.82
Jackson,northern,42.4165,-122.8345,102.67,25,0,5.01
Arlit,northern,18.7369,7.3853,97.5,12,27,7.34
Faanui,southern,-16.4833,-151.75,80.74,68,100,16.98
Rocha,southern,-34.4833,-54.3333,42.78,94,100,24.85
Batagay-Alyta,northern,67.8006,130.4114,60.85,78,100,1.45
Longyearbyen,northern,78.2186,15.6401,41.07,75,100,7.63
Vallenar,southern,-28.5708,-70.7581,76.95,4,0,3.04
Xichang,northern,27.8964,102.2634,65.82,93,83,0.87
Atuona,southern,-9.8,-139.0333,79.34,67,0,22.01
Hokitika,southern,-42.7167,170.9667,37.89,67,2,5.64
Grindavik,northern,63.8424,-22.4338,48.67,87,75,11.5
Aykhal,northern,66,111.5,55.94,52,100,5.73
Malibu,northern,34.005,-118.8101,81.99,71,23,10.16
Ghanzi,southern,-21.5667,21.7833,61.74,28,0,8.39
Nanortalik,northern,60.1432,-45.2371,41.32,98,100,6.58
Iraan,northern,30.914,-101.8979,85.14,41,88,5.01
Geraldton,southern,-28.7667,114.6,57.61,88,90,9.22
Faya,northern,18.3851,42.4509,72.16,54,68,1.14
Marsá Maţrūḩ,northern,31.3525,27.2453,80.8,74,0,11.5
Nouadhibou,northern,20.931,-17.0347,68.94,78,5,26.35
Ballina,southern,-28.8667,153.5667,53.98,99,48,6.67
Ayan,northern,56.45,138.1667,51.67,94,84,3.91
Yeppoon,southern,-23.1333,150.7333,58.78,85,91,17.29
La Santisima Trinidad,southern,-14.8333,-64.9,48.85,81,100,9.86
Fortuna,northern,40.5982,-124.1573,68.95,74,20,3
Hue,northern,16.4667,107.6,84.31,61,20,4.61
Belyy Yar,northern,53.6039,91.3903,58.89,88,0,4.47
Saint-Augustin,northern,51.226,-58.6502,63.99,59,97,4.05
Baisha,northern,26.5222,110.9311,76.46,99,100,3.04
Malatya Province,northern,38.5,38,80.65,45,40,13.8
Itapirapuã,southern,-15.8233,-50.6133,89.53,19,0,5.64
Abu Dhabi,northern,24.4667,54.3667,92.82,56,0,11.5
Paka,northern,4.6374,103.4368,77.97,85,100,2.42
Byron Bay,southern,-28.65,153.6167,54.72,85,55,7.45
Sistranda,northern,63.7256,8.834,53.56,88,100,11.18
Fox Lake,northern,42.3967,-88.1837,76.53,83,100,1.01
Cabo San Lucas,northern,22.8909,-109.9124,88.18,69,12,7.74
Gdańsk,northern,54.3521,18.6464,66.76,77,0,5.75
Marawi,northern,7.9986,124.2928,69.66,94,45,2.37
Saint Paul Harbor,northern,57.79,-152.4072,50.52,88,95,1.3
Hasaki,northern,35.7333,140.8333,68.23,96,100,15.93
Olden,northern,61.8364,6.8064,60.24,58,13,6.29
Abohar,northern,30.15,74.1833,97.45,27,0,4.85
Puerto Maldonado,southern,-12.6,-69.1833,57.6,94,90,8.05
Qingdao,northern,36.0986,120.3719,71.55,88,14,6.8
Anadyr,northern,64.75,177.4833,41.56,91,86,12.03
The Hammocks,northern,25.6715,-80.4445,81.03,83,20,3.44
Seoul,northern,37.5683,126.9778,69.4,87,17,1.79
Codrington,southern,-38.2667,141.9667,42.6,87,100,8.93
Labuhan,southern,-6.8844,112.2051,77.95,86,99,6.76
Severo-Kuril'sk,northern,50.6789,156.125,46.58,91,96,8.77
Cayenne,northern,4.9333,-52.3333,84.09,74,75,3
Koungheul,northern,13.9833,-14.8,96.6,36,9,7.02
Barra de Tecoanapa,northern,16.5167,-98.75,78.04,77,100,6.71
Río Gallegos,southern,-51.6226,-69.2181,43.75,75,100,7.16
Chāībāsa,northern,22.5667,85.8167,82.96,77,100,7.76
Sirte,northern,31.2089,16.5887,83.8,54,0,11.3
Lehututu,southern,-23.9667,21.8667,63.21,25,0,11.9
Aksarka,northern,66.5606,67.7975,44.42,65,6,4.94
Estelle,northern,29.8458,-90.1067,81.84,73,75,4.61
Chokurdakh,northern,70.6333,147.9167,44.47,75,100,13.33
Siguiri,northern,11.6667,-9.5,93.33,32,24,6.93
Hīt,northern,33.6416,42.8251,100.42,10,0,10.65
Rivière-du-Loup,northern,47.8304,-69.5342,71.78,61,35,1.43
Yaqui,northern,27.3667,-110.1667,99.32,32,0,14.58
Garissa,southern,-0.4536,39.6401,77.88,62,35,19.73
Progreso,northern,21.2833,-89.6667,92.1,60,100,10.6
Mossamedes,southern,-15.1961,12.1522,67.01,84,58,5.35
Sfântu Gheorghe,northern,45.8667,25.7833,67.26,85,1,2.95
Collie,southern,-33.3667,116.15,49.98,93,95,12.19
Marakkanam,northern,12.2,79.95,83.73,78,64,13.15
Tuatapere,southern,-46.1333,167.6833,41.83,70,96,10.18
Kiryat Gat,northern,31.61,34.7642,82.2,61,0,4.56
Zhangaözen,northern,43.3,52.8,93.31,19,1,5.06
Jizan,northern,17.3333,42.6667,91.04,45,55,2.17
Namatanai,southern,-3.6667,152.4333,79.5,81,98,8.37
Umm Kaddadah,northern,13.6017,26.6876,95.95,23,41,8.55
Chunskiy,northern,56.0815,99.6342,49.87,96,14,2.19
Jiamusi,northern,46.8333,130.35,64.54,86,90,4.92
Mehamn,northern,71.0357,27.8492,50.18,88,100,13.8
Roald,northern,62.5833,6.1333,53.69,82,75,8.05
Mocuba,southern,-16.8392,36.9856,63.45,92,11,2.91
Barra Patuca,northern,15.8,-84.2833,85.8,64,41,12.21
Ichihara,northern,35.5167,140.0833,68.27,97,100,13.18
Kintampo,northern,8.0563,-1.7306,82.65,57,100,5.23
Ambon City,southern,-3.6954,128.1814,78.31,86,57,9.31
Mayo,northern,38.8876,-76.5119,90.16,69,23,4
The Valley,northern,18.217,-63.0578,86.07,70,20,17.27
Kasongo-Lunda,southern,-6.4667,16.8167,74.66,28,99,3
Haines Junction,northern,60.7522,-137.5108,70.77,44,100,4.18
Port Lincoln,southern,-34.7333,135.8667,51.44,57,100,14.07
Ahipara,southern,-35.1667,173.1667,55.22,70,100,17
Doctor Arroyo,northern,23.6667,-100.1833,76.17,47,100,7.96
Kudamatsu,northern,34,131.8667,71.55,92,1,3.67
Matara,northern,5.9485,80.5353,77.86,89,35,8.12
São Félix do Xingu,southern,-6.6447,-51.995,93.85,25,10,3.38
Carutapera,southern,-1.195,-46.02,84.02,72,24,4.25
Jega,northern,12.2175,4.3792,93.04,39,55,3.94
Emmett,northern,43.8735,-116.4993,95.47,26,0,1.01
Lüderitz,southern,-26.6481,15.1594,58.1,71,0,7.27
Banda Aceh,northern,5.5577,95.3222,79.83,79,82,8.9
Hervey Bay,southern,-25.2986,152.8535,58.01,91,73,3
Kaitangata,southern,-46.2817,169.8464,43.93,37,72,17.52
Lata,northern,40.1629,-8.3327,61.97,64,22,8.9
Mbanza-Ngungu,southern,-5.25,14.8667,72.95,61,29,3.67
Dhidhdhoo,northern,6.8833,73.1,83.21,76,100,15.1
Montemor-o-Novo,northern,38.6481,-8.2145,68.4,43,0,14.76
Necochea,southern,-38.5473,-58.7368,48.04,71,100,25.08
Alibag,northern,18.6411,72.8792,82.47,80,100,2.84
Brae,northern,60.3964,-1.353,51.71,88,77,10.51
Zaozyornoye,northern,45.1582,33.2787,72.03,77,1,9.48
Huarmey,southern,-10.0681,-78.1522,70.11,71,70,10.98
Sawākin,northern,19.1059,37.3321,89.78,46,1,6.42
Arrondissement de Lure,northern,47.75,6.5,62.37,94,100,6.91
Leshukonskoye,northern,64.8989,45.7622,65.23,92,100,3.06
Neiafu,southern,-18.65,-173.9833,76.15,67,100,17.98
Blackwater,southern,-23.5833,148.8833,56.73,79,16,10.69
Lavrentiya,northern,65.5833,-171,46.26,86,100,10.13
Lodwar,northern,3.1191,35.5973,86.13,34,55,17.45
Thanh Hoa,northern,19.8,105.7667,84.79,64,100,6.98
Kavieng,southern,-2.5744,150.7967,81.54,78,100,11.43
Rodas,northern,22.3408,-80.5572,90.48,50,94,6.89
Mount Gambier,southern,-37.8333,140.7667,42.66,87,9,6.93
Pacific Grove,northern,36.6177,-121.9166,62.02,86,90,1.99
Ivdel',northern,60.6911,60.4206,68.4,79,86,1.74
Reshetnikovo,northern,56.45,36.5667,66.52,99,99,5.5
Carroll,northern,39.5501,-77.0164,89.78,61,5,5.01
Tacoronte,northern,28.4769,-16.4102,63.72,75,75,15.01
Bubaque,northern,11.2833,-15.8333,80.8,82,97,14.76
Novodmitriyevskaya,northern,44.8347,38.8772,73.49,88,0,4.03
Pundaguitan,northern,6.3711,126.1689,82.2,73,7,0.83
Vila Velha,southern,-20.3297,-40.2925,79.97,56,0,15.03
Homer,northern,59.6425,-151.5483,54.45,87,42,3.83
Mount Isa,southern,-20.7333,139.5,53.37,76,28,5.75
Klyuchi,northern,52.2667,79.1667,65.03,77,35,7.34
Pevek,northern,69.7008,170.3133,37.09,93,100,3.49
Vanino,northern,49.0869,140.2543,47.03,98,100,2.89
Otradnoye,northern,59.7775,30.8181,66.04,97,100,7.25
Tessalit,northern,20.1986,1.0114,100.54,7,0,10.04
Los Llanos de Aridane,northern,28.6585,-17.9182,68.13,83,75,17.27
Vigía del Fuerte,northern,6.5789,-76.8863,89.17,58,72,1.72
Makkah al Mukarramah,northern,21.4267,39.8261,89.65,34,0,4
Shimoda,northern,34.6667,138.95,68.11,95,100,25.3
Andenes,northern,69.3143,16.1194,46.4,93,75,14.97
Arrondissement de Rambouillet,northern,48.5833,1.9167,62.28,92,78,5.48
Selty,northern,57.3132,52.1345,69.67,89,8,5.86
Batangafo,northern,7.3008,18.2833,72.84,83,100,2.24
Tevriz,northern,57.509,72.4042,61.41,79,97,4.81
Jiuquan,northern,39.7432,98.5174,66.6,26,0,3.53
Caravelas,southern,-17.7125,-39.2481,75.29,58,0,5.79
Sittwe,northern,20.15,92.9,81.23,86,100,6.6
São José da Coroa Grande,southern,-8.8978,-35.1478,77.14,73,7,10.63
Bethel,northern,41.3712,-73.414,90.73,63,100,10.49
Deputatsky,northern,69.3,139.9,57.33,76,100,5.3
Skibbereen,northern,51.55,-9.2667,66,73,100,9.91
Katobu,southern,-4.9408,122.5276,73.35,97,100,4.36
Sørland,northern,67.667,12.6934,48.06,86,100,15.43
Manokwari,southern,-0.8667,134.0833,77.52,77,100,2.75
Severodvinsk,northern,64.5635,39.8302,60.91,93,84,4.76
Cabra,northern,37.4725,-4.4421,85.69,17,0,3
Asău,northern,46.4333,26.4,64.11,100,21,3.89
Inírida,northern,3.8653,-67.9239,82.29,83,89,2.08
Mahon,northern,39.8885,4.2658,75.76,78,20,10.36
Biak,southern,-0.9131,122.8766,74.77,87,21,6.35
Dunmore Town,northern,25.5,-76.65,81.84,76,12,11.5
La Palma,northern,33.8464,-118.0467,80.26,62,1,3
Whitianga,southern,-36.8333,175.7,50.02,78,100,13.13
Muli,northern,2.9167,73.5667,81.57,76,99,9.84
Velikiy Ustyug,northern,60.7644,46.3106,68.47,94,100,4.18
Qui Nhon,northern,13.7667,109.2333,81.86,72,97,5.75
Acaraú,southern,-2.8856,-40.12,82.33,68,10,12.59
Tapes,southern,-30.6733,-51.3958,51.28,60,6,16.13
Kaka,northern,37.3482,59.6143,90.88,17,38,7.11
La Fria,northern,8.2203,-72.2439,91.06,49,20,5.91
Khovd,northern,48.0056,91.6419,59.07,47,100,2.95
Kota Kinabalu,northern,5.9749,116.0724,73.38,94,20,6.91
Zastron,southern,-30.3023,27.084,47.39,37,0,6.02
Tiksi,northern,71.6872,128.8694,31.57,97,100,6.8
Kamloops,northern,50.6665,-120.3192,97.83,20,5,2.37
Toora-Khem,northern,52.4675,96.11,44.64,88,79,0.69
Vanimo,southern,-2.6741,141.3028,77.2,89,32,4.14
Mnogovershinnyy,northern,53.9353,139.9242,47.3,91,22,4.07
Micheweni,southern,-4.9667,39.8333,76.1,78,37,13.98
Lompoc,northern,34.6391,-120.4579,63.14,79,40,13.8
Mae Hong Son,northern,19.3003,97.9685,73.51,98,100,1.92
Khanpur,northern,28.6453,70.6567,101.23,21,0,6.78
Maturin,northern,9.75,-63.1767,80.58,83,51,8.68
Hambantota,northern,6.1241,81.1185,79.45,85,93,13.96
Barranca,southern,-10.75,-77.7667,67.33,71,100,9.86
Cottonwood,northern,34.7392,-112.0099,94.17,21,6,3
Nakło nad Notecią,northern,53.1421,17.6018,73.83,65,0,4.18
Olafsvik,northern,64.8945,-23.7142,51.28,82,100,7.58
Valparaíso,southern,-33.0393,-71.6273,64.04,45,0,8.05
Libertador General San Martín,southern,-23.8064,-64.7876,56.93,37,1,3.87
Zhalantun,northern,48,122.7167,64.27,87,12,2.93
Oranjemund,southern,-28.55,16.4333,58.26,71,4,7.09
Manuk Mangkaw,northern,4.8,119.85,83.52,69,6,6.64
Washougal,northern,45.5826,-122.3534,108.27,22,1,14.97
Chiang Rai,northern,19.9167,99.9167,77.13,94,100,1.01
Sherlovaya Gora,northern,50.5667,116.25,58.48,92,89,5.1
Havre-St-Pierre,northern,50.2334,-63.5986,65.91,63,0,10.09
Morros,southern,-9.4467,-46.3003,88.25,23,0,4.88
Kinna,northern,57.5073,12.6946,64.35,69,80,5.28
Moerai,southern,-22.4333,-151.3333,74.8,81,100,18.99
Fredericton,northern,45.9454,-66.6656,82.36,74,82,1.01
Isiro,northern,2.7739,27.616,67.53,97,100,0.27
Mrakovo,northern,52.7161,56.6244,67.51,89,0,3.53
Laas,northern,46.6166,10.7002,78.71,82,100,5.03
Bonavista,northern,48.6499,-53.1147,56.12,88,100,22.64
Tura,northern,25.5198,90.2201,74.5,97,79,6.96
Morondava,southern,-20.2833,44.2833,71.22,67,0,7.11
Sungai Penuh,southern,-2.0833,101.3833,63.3,98,87,1.41
Ialibu,southern,-6.2821,143.9935,53.06,96,17,2.62
Hamadan,northern,34.7992,48.5146,72.86,17,15,6.33
Manama,northern,26.2154,50.5832,91.38,62,0,9.22
Margate,northern,51.3813,1.3862,60.64,99,41,3
‘Āhuimanu,northern,21.4447,-157.8378,80.98,54,7,9.44
Beni Suef,northern,29.0731,31.0979,92.55,23,0,19.39
Whitehorse,northern,60.7161,-135.0538,74.26,35,20,9.22
Camacha,northern,33.0833,-16.3333,67.42,68,20,13.8
Dingle,northern,10.9995,122.6711,76.39,89,31,1.86
Kailua,northern,21.4022,-157.7394,81.5,68,11,11.9
Cherskiy,northern,68.75,161.3,72.88,41,17,9.55
Verkhnyaya Toyma,northern,62.2349,44.9985,67.86,94,16,3.91
Krasnyy Chikoy,northern,50.3643,108.7512,58.91,98,100,4.99
Lumeje,southern,-11.55,20.7833,64.98,31,9,4.47
Saint-Joseph,southern,-21.3667,55.6167,68.27,84,30,10.04
San Juan,southern,-31.5375,-68.5364,53.47,22,0,8.7
Rock Sound,northern,24.9,-76.2,81.82,76,86,12.66
Boat of Garten,northern,57.2491,-3.759,56.12,68,100,3.89
Dafeng,northern,23.4517,108.5881,79.56,93,100,4.29
Manjeri,northern,11.1167,76.1167,79.48,78,20,0
Waipawa,southern,-41.4122,175.5153,40.14,77,100,26.24
Sokol,northern,59.4617,40.1206,67.87,97,94,7.78
Mumford,northern,5.2618,-0.759,78.98,82,100,12.41
Riberalta,southern,-10.9833,-66.1,82.44,49,58,7.07
Chalmette,northern,29.9427,-89.9634,83.53,79,75,4.61
Richards Bay,southern,-28.783,32.0377,73.13,32,5,11.86
Manzhouli,northern,49.6,117.4333,63.54,88,85,3.15
Domodossola,northern,46.1165,8.2931,74.46,90,85,3.38
Muros,northern,42.7762,-9.0603,64.31,66,27,10.65
Øksfjord,northern,70.2396,22.3479,49.48,86,100,7.4
Mackenzie,northern,55.2999,-123.1698,97.56,26,0,4.38
Sambava,southern,-14.2667,50.1667,71.19,87,14,12.48
Morón,southern,-34.6534,-58.6198,47.52,73,99,7
Whakatane,southern,-37.9585,176.9854,48.78,78,100,5.44
Tegul'det,northern,57.3064,88.1667,53.64,98,98,4.23
Norman Wells,northern,65.282,-126.8329,78.82,41,80,7.63
Panjāb,northern,34.388,67.0233,54.61,53,31,4.79
Talakan,northern,50.3167,130.3667,60.6,96,2,1.72
Jacmel,northern,18.2342,-72.5347,85.35,65,100,7.2
Adūr,northern,9.1667,76.7333,74.97,92,13,3.4
Kaseda-shirakame,northern,31.4167,130.3167,73.85,87,74,3.67
Ruidoso,northern,33.3317,-105.673,55.31,96,90,1.99
Nizhnyaya Tavda,northern,57.6731,66.1725,64.71,71,67,5.97
Inta,northern,66.0317,60.1659,50.18,66,12,10.18
Kumluca,northern,36.3703,30.2869,86.09,42,0,6.8
Coahuayana Viejo,northern,18.7333,-103.6833,81.88,64,99,1.05
Sioux Lookout,northern,50.1001,-91.917,81.14,28,100,6.67
Hvolsvollur,northern,63.7533,-20.2243,48.87,74,100,6.38
Imbituba,southern,-28.24,-48.6703,56.82,92,100,11.99
Korla,northern,41.7597,86.1469,79.65,15,45,2.59
Bowen,southern,-20.0167,148.2333,69.75,82,81,22.1
Kiruna,northern,67.8557,20.2251,50.92,58,40,11.5
Loukhi,northern,66.0764,33.0381,61.48,63,1,4.68
Nādāpuram,northern,11.7,75.6667,76.86,88,3,2.1
Pemangkat,northern,1.1667,108.9667,78.46,81,100,3.71
Payson,northern,40.0444,-111.7321,85.51,20,1,5.99
Nadym,northern,65.5333,72.5167,43.81,74,21,5.41
Bavly,northern,54.393,53.2602,73.13,70,15,3.04
Wajima,northern,37.4,136.9,70.05,93,100,7.23
Suifenhe,northern,44.4,131.1667,56.93,96,8,2.48
Pascagoula,northern,30.3658,-88.5561,88.65,70,20,11.5
Kautokeino,northern,69.0125,23.0412,52.43,58,12,17.29
Jamame,northern,0.0722,42.7506,75.42,83,43,7.96
Joensuu,northern,62.6012,29.7632,68.49,49,0,5.75
Sainte-Rose,northern,16.3324,-61.6979,87.84,62,75,16.11
León,northern,21.1167,-101.6667,77.14,50,100,7.18
Pombas,northern,17.1503,-25.0201,76.78,79,9,13.22
Ihiala,northern,5.8538,6.8603,74.8,91,91,2.21
Lipova,northern,46.0833,21.7,79.75,54,0,3.38
Flin Flon,northern,54.7682,-101.865,84.36,28,100,9.04
Olinda,southern,-8.0089,-34.8553,78.53,65,40,16.11
Tigil',northern,57.8,158.6667,51.94,72,1,5.73
Beisfjord,northern,68.3751,17.5988,50.05,96,100,3.87
Povenets,northern,62.8487,34.8262,64.33,70,100,6.58
Eirunepé,southern,-6.6603,-69.8736,88.84,51,88,3.62
Gangāpur,northern,26.4833,76.7167,96.96,28,4,6.91
Koygorodok,northern,60.445,50.9968,67.17,96,87,4
Muroto-misakicho,northern,33.2833,134.15,73.47,84,87,4.05
Yuanping,northern,38.7153,112.7575,70.99,66,100,1.57
Nautla,northern,20.2167,-96.7833,84,65,100,3.15
Teluknaga,southern,-6.0989,106.6381,77.02,88,20,3
Ruteng,southern,-8.6136,120.4721,60.58,94,50,2.24
Cassilândia,southern,-19.1133,-51.7342,76.57,38,60,7.96
Livingston,northern,55.9029,-3.5226,61.81,84,20,3.44
Uíge,southern,-7.6087,15.0613,69.89,31,100,1.36
Tateyama,northern,34.9833,139.8667,69.73,94,75,10.36
Tommot,northern,58.9564,126.2925,58.77,92,20,3.29
Bonthe,northern,7.5264,-12.505,78.76,81,100,5.7
Safi,northern,32.2994,-9.2372,69.24,67,0,22.15
Poum,southern,-20.2333,164.0167,73.51,80,8,12.5
Ketchikan,northern,55.3422,-131.6461,73.87,56,1,13.8
Yerofey Pavlovich,northern,53.9667,121.9667,62.47,74,20,4.5
Port Moresby,southern,-9.4431,147.1797,74.44,91,49,6.71
Ruska Poliana,northern,49.417,31.9201,64.27,87,30,7.67
Soyo,southern,-6.1349,12.3689,73.85,86,13,8.99
Dunedin,southern,-45.8742,170.5036,45.81,43,93,35.99
Esim,northern,4.8699,-2.2405,77.45,86,95,7.2
Gijang,northern,35.2442,129.2139,67.78,88,1,6.49
Nikolayevsk-on-Amur,northern,53.1406,140.73,47.08,98,98,3.62
Nuuk,northern,64.1835,-51.7216,38.88,93,100,18.99
Samarai,southern,-10.6167,150.6667,78.75,84,87,11.27
Yambio,northern,4.5721,28.3955,70.65,91,94,3.47
Tual,southern,-5.6667,132.75,80.73,81,17,17.9
Indre Arna,northern,60.4247,5.4764,55.67,87,62,3.65
Vadsø,northern,70.0744,29.7487,50.63,81,40,6.91
Kinablangan,northern,7.6947,126.5503,78.19,84,28,4.25
Charters Towers,southern,-20.1,146.2667,63.7,84,100,8.75
Cantaura,northern,9.3057,-64.3584,89.42,43,78,11.88
El Llano,northern,20.05,-99.3,67.23,62,100,1.01
Camopi,northern,3.1655,-52.3158,79.16,78,100,1.9
Buritizeiro,southern,-17.3511,-44.9622,82.33,22,0,2.37
Kuah,northern,6.3265,99.8432,83.62,74,94,10.38
Umeå,northern,63.8284,20.2597,64.33,72,0,6.91
Lithakia,northern,37.7167,20.8333,83.32,45,0,0
Paignton,northern,50.4357,-3.5679,63.81,1,36,10.38
Mackay,southern,-21.15,149.2,67.68,82,99,21.21
Alofi,southern,-19.0595,-169.9187,69.69,73,40,14.97
Kenai,northern,60.5544,-151.2583,52.97,85,90,10.36
Statesboro,northern,32.4488,-81.7832,80.04,73,90,3.44
Icod de los Vinos,northern,28.3724,-16.7119,68.88,73,3,12.41
Windhoek,southern,-22.5594,17.0832,59.11,36,17,4.47
Sheridan,northern,44.8333,-106.9173,78.66,31,1,5.75
Plettenberg Bay,southern,-34.0527,23.3716,53.31,87,100,11.25
Pangkalanbuun,southern,-2.6833,111.6167,73.2,98,91,0.92
Jacksonville,northern,30.3322,-81.6556,75.33,89,90,9.22
Tarsus,northern,36.9188,34.8784,80.47,74,1,3.33
